{"type":"FeatureCollection","features":[{"type":"Feature","properties":{"Name":"La Yeguada","Country":"Panama","Height":"1297 m"},"geometry":{"type":"Point","coordinates":[-80.82,8.47]}},{"type":"Feature","properties":{"Name":"Baru","Country":"Panama","Height":"3474 m"},"geometry":{"type":"Point","coordinates":[-82.542339,8.808811]}},{"type":"Feature","properties":{"Name":"Arenal","Country":"Costa Rica","Height":"1670 m"},"geometry":{"type":"Point","coordinates":[-84.703333,10.463333]}},{"type":"Feature","properties":{"Name":"Irazu","Country":"Costa Rica","Height":"3432 m"},"geometry":{"type":"Point","coordinates":[-83.8525,9.979167]}},{"type":"Feature","properties":{"Name":"Miravalles","Country":"Costa Rica","Height":"2028 m"},"geometry":{"type":"Point","coordinates":[-85.152778,10.748333]}},{"type":"Feature","properties":{"Name":"Platanar","Country":"Costa Rica","Height":"2183 m"},"geometry":{"type":"Point","coordinates":[-84.366088,10.300017]}},{"type":"Feature","properties":{"Name":"Poas","Country":"Costa Rica","Height":"2697 m"},"geometry":{"type":"Point","coordinates":[-84.233,10.2]}},{"type":"Feature","properties":{"Name":"Rincon de la Vieja","Country":"Costa Rica","Height":"1916 m"},"geometry":{"type":"Point","coordinates":[-85.323889,10.83]}},{"type":"Feature","properties":{"Name":"Tenorio","Country":"Costa Rica","Height":"1916 m"},"geometry":{"type":"Point","coordinates":[-85.015,10.672778]}},{"type":"Feature","properties":{"Name":"Turrialba","Country":"Costa Rica","Height":"3340 m"},"geometry":{"type":"Point","coordinates":[-83.763889,10.018056]}},{"type":"Feature","properties":{"Name":"Concepcion","Country":"Nicaragua","Height":"1610 m"},"geometry":{"type":"Point","coordinates":[-85.622,11.538]}},{"type":"Feature","properties":{"Name":"Maderas","Country":"Nicaragua","Height":"1394 m"},"geometry":{"type":"Point","coordinates":[-85.515,11.446]}},{"type":"Feature","properties":{"Name":"Mombacho","Country":"Nicaragua","Height":"1344 m"},"geometry":{"type":"Point","coordinates":[-85.9675,11.826111]}},{"type":"Feature","properties":{"Name":"Momotombo","Country":"Nicaragua","Height":"1297 m"},"geometry":{"type":"Point","coordinates":[-86.54,12.422]}},{"type":"Feature","properties":{"Name":"San Cristobal","Country":"Nicaragua","Height":"1745 m"},"geometry":{"type":"Point","coordinates":[-87.004,12.702]}},{"type":"Feature","properties":{"Name":"Telica","Country":"Nicaragua","Height":"1036 m"},"geometry":{"type":"Point","coordinates":[-86.845,12.602]}},{"type":"Feature","properties":{"Name":"Chinameca","Country":"El Salvador","Height":"1300 m"},"geometry":{"type":"Point","coordinates":[-88.33,13.478]}},{"type":"Feature","properties":{"Name":"Chingo","Country":"El Salvador","Height":"1775 m"},"geometry":{"type":"Point","coordinates":[-89.73,14.12]}},{"type":"Feature","properties":{"Name":"Conchagua","Country":"El Salvador","Height":"1225 m"},"geometry":{"type":"Point","coordinates":[-87.845,13.275]}},{"type":"Feature","properties":{"Name":"Izalco","Country":"El Salvador","Height":"1950 m"},"geometry":{"type":"Point","coordinates":[-89.633,13.813]}},{"type":"Feature","properties":{"Name":"Santa Ana","Country":"El Salvador","Height":"2381 m"},"geometry":{"type":"Point","coordinates":[-89.63,13.853]}},{"type":"Feature","properties":{"Name":"San Miguel","Country":"El Salvador","Height":"2130 m"},"geometry":{"type":"Point","coordinates":[-88.271389,13.431667]}},{"type":"Feature","properties":{"Name":"San Salvador","Country":"El Salvador","Height":"1893 m"},"geometry":{"type":"Point","coordinates":[-89.294,13.734]}},{"type":"Feature","properties":{"Name":"San Vincente","Country":"El Salvador","Height":"2182 m"},"geometry":{"type":"Point","coordinates":[-88.837,13.595]}},{"type":"Feature","properties":{"Name":"Usulutan","Country":"El Salvador","Height":"1449 m"},"geometry":{"type":"Point","coordinates":[-88.471,13.419]}},{"type":"Feature","properties":{"Name":"Acatenango","Country":"Guatemala","Height":"3976 m"},"geometry":{"type":"Point","coordinates":[-90.875833,14.500833]}},{"type":"Feature","properties":{"Name":"Agua","Country":"Guatemala","Height":"3760 m"},"geometry":{"type":"Point","coordinates":[-90.743056,14.465]}},{"type":"Feature","properties":{"Name":"Almolonga","Country":"Guatemala","Height":"3197 m"},"geometry":{"type":"Point","coordinates":[-91.52,14.8]}},{"type":"Feature","properties":{"Name":"Atitlan","Country":"Guatemala","Height":"3535 m"},"geometry":{"type":"Point","coordinates":[-91.186111,14.583333]}},{"type":"Feature","properties":{"Name":"Chicabal","Country":"Guatemala","Height":"2720 m"},"geometry":{"type":"Point","coordinates":[-91.66,14.79]}},{"type":"Feature","properties":{"Name":"Cuilapa-Barbarena","Country":"Guatemala","Height":"1454 m"},"geometry":{"type":"Point","coordinates":[-90.066667,14.55]}},{"type":"Feature","properties":{"Name":"Fuego","Country":"Guatemala","Height":"3763 m"},"geometry":{"type":"Point","coordinates":[-90.880833,14.474722]}},{"type":"Feature","properties":{"Name":"Jumay","Country":"Guatemala","Height":"2176 m"},"geometry":{"type":"Point","coordinates":[-89.993056,14.693056]}},{"type":"Feature","properties":{"Name":"Moyuta","Country":"Guatemala","Height":"1662 m"},"geometry":{"type":"Point","coordinates":[-90.1,14.03]}},{"type":"Feature","properties":{"Name":"Pacaya","Country":"Guatemala","Height":"2552 m"},"geometry":{"type":"Point","coordinates":[-90.601111,14.380833]}},{"type":"Feature","properties":{"Name":"Santa Maria","Country":"Guatemala","Height":"3772 m"},"geometry":{"type":"Point","coordinates":[-91.551667,14.75556]}},{"type":"Feature","properties":{"Name":"San Pedro","Country":"Guatemala","Height":"3020 m"},"geometry":{"type":"Point","coordinates":[-91.265833,14.655833]}},{"type":"Feature","properties":{"Name":"Santo Tomas","Country":"Guatemala","Height":"3542 m"},"geometry":{"type":"Point","coordinates":[-91.478889,14.71]}},{"type":"Feature","properties":{"Name":"Siete Orejas","Country":"Guatemala","Height":"3370 m"},"geometry":{"type":"Point","coordinates":[-91.61765,14.81484]}},{"type":"Feature","properties":{"Name":"Tacana","Country":"Guatemala","Height":"4060 m"},"geometry":{"type":"Point","coordinates":[-92.108611,15.1325]}},{"type":"Feature","properties":{"Name":"Tajumulco","Country":"Guatemala","Height":"4203 m"},"geometry":{"type":"Point","coordinates":[-91.903308,15.043685]}},{"type":"Feature","properties":{"Name":"Tecuamburro","Country":"Guatemala","Height":"1845 m"},"geometry":{"type":"Point","coordinates":[-90.406944,14.155833]}},{"type":"Feature","properties":{"Name":"Toliman","Country":"Guatemala","Height":"3158 m"},"geometry":{"type":"Point","coordinates":[-91.189444,14.613333]}}]}
